{"type":"FeatureCollection","version":"draft","features":[{"type":"Feature","geometry":{"type":"Point","coordinates":[6.069561,43.415211]},"properties":{"label":"Paris 83170 Brignoles","score":0.9516972727272727,"id":"83023_05n1tm","name":"Paris","postcode":"83170","citycode":"83023","x":948661.53,"y":6262177.77,"city":"Brignoles","context":"83, Var, Provence-Alpes-Côte d'Azur","type":"street","importance":0.46867,"street":"Paris"}},{"type":"Feature","geometry":{"type":"Point","coordinates":[-0.418837,44.758777]},"properties":{"label":"Paris 33880 Saint-Caprais-de-Bordeaux","score":0.9505399999999998,"id":"33381_sy62ut","name":"Paris","postcode":"33880","citycode":"33381","x":429522.28,"y":6412482.95,"city":"Saint-Caprais-de-Bordeaux","context":"33, Gironde, Nouvelle-Aquitaine","type":"street","importance":0.45594,"street":"Paris"}},{"type":"Feature","geometry":{"type":"Point","coordinates":[-0.526894,43.762486]},"properties":{"label":"Paris 40500 Saint-Sever","score":0.9477409090909091,"id":"40282_032egn","name":"Paris","postcode":"40500","citycode":"40282","x":416036.86,"y":6302283.28,"city":"Saint-Sever","context":"40, Landes, Nouvelle-Aquitaine","type":"street","importance":0.42515,"street":"Paris"}},{"type":"Feature","geometry":{"type":"Point","coordinates":[1.549305,43.419569]},"properties":{"label":"Paris 31560 Saint-Léon","score":0.93985,"id":"31495_9t26ts","name":"Paris","postcode":"31560","citycode":"31495","x":582466.81,"y":6258908.07,"city":"Saint-Léon","context":"31, Haute-Garonne, Occitanie","type":"street","importance":0.33835,"street":"Paris"}},{"type":"Feature","geometry":{"type":"Point","coordinates":[1.957948,42.947813]},"properties":{"label":"Paris 11230 Sainte-Colombe-sur-l'Hers","score":0.9349254545454545,"id":"11336_oth9ey","name":"Paris","postcode":"11230","citycode":"11336","x":614880.05,"y":6205942.46,"city":"Sainte-Colombe-sur-l'Hers","context":"11, Aude, Occitanie","type":"street","importance":0.28418,"street":"Paris"}}],"attribution":"BAN","licence":"ETALAB-2.0","query":"paris","filters":{"type":"street"},"limit":5}